{"4bb64dd22f70c9b646358530": {"category": "Deli / Bodega", "rating": 6.1, "data_source": "foursquare_explore", "name": "Hackensack Market", "twitter": "", "place_id": "4bb64dd22f70c9b646358530", "longitude": -74.044027, "users_count": 179, "hours": "", "popular": [{"segments": [], "open": [{"renderedTime": "10:00 AM\u20131:00 PM"}, {"renderedTime": "5:00 PM\u20136:00 PM"}], "days": "Today", "includesToday": true}, {"segments": [], "open": [{"renderedTime": "8:00 AM\u20139:00 AM"}, {"renderedTime": "4:00 PM\u20137:00 PM"}], "days": "Thu"}, {"segments": [], "open": [{"renderedTime": "10:00 AM\u20138:00 PM"}], "days": "Fri"}, {"segments": [], "open": [{"renderedTime": "11:00 AM\u20139:00 PM"}], "days": "Sat"}, {"segments": [], "open": [{"renderedTime": "10:00 AM\u20138:00 PM"}], "days": "Sun"}, {"segments": [], "open": [{"renderedTime": "1:00 PM\u20133:00 PM"}, {"renderedTime": "5:00 PM\u20139:00 PM"}], "days": "Mon"}, {"segments": [], "open": [{"renderedTime": "1:00 PM\u20132:00 PM"}, {"renderedTime": "4:00 PM\u20136:00 PM"}, {"renderedTime": "8:00 PM\u20139:00 PM"}], "days": "Tue"}], "user": ["45152356", "7128944"], "time": "2014-11-26 19:45:36.577000", "latitude": 40.892491, "checkins": 331}, "4f322c2d19836c91c7bd4fac": {"category": "Food", "rating": "", "data_source": "foursquare_explore", "name": "Chicken Magician", "twitter": "", "place_id": "4f322c2d19836c91c7bd4fac", "longitude": -74.043999, "users_count": 1, "hours": "", "popular": "", "user": [], "time": "2014-11-26 19:45:37.357000", "latitude": 40.894001, "checkins": 1}, "4bd199b1caff9521efe4d0f0": {"category": "Deli / Bodega", "rating": "", "data_source": "foursquare_explore", "name": "Sam's Deli", "twitter": "", "place_id": "4bd199b1caff9521efe4d0f0", "longitude": -74.04294179811104, "users_count": 16, "hours": [{"segments": [], "open": [{"renderedTime": "5:30 AM\u20136:00 PM"}], "days": "Mon\u2013Fri", "includesToday": true}, {"segments": [], "open": [{"renderedTime": "6:30 AM\u20135:00 PM"}], "days": "Sat"}, {"segments": [], "open": [{"renderedTime": "7:00 AM\u20135:00 PM"}], "days": "Sun"}], "popular": "", "user": [], "time": "2014-11-26 19:45:36.718000", "latitude": 40.89349759481903, "checkins": 119}, "4e60ed9fe4cdf1e2bea030b6": {"category": "Bagel Shop", "rating": "", "data_source": "foursquare_explore", "name": "Fresh Hot Bagel & Deki", "twitter": "", "place_id": "4e60ed9fe4cdf1e2bea030b6", "longitude": -74.04394, "users_count": 20, "hours": "", "popular": "", "user": [], "time": "2014-11-26 19:45:37.685000", "latitude": 40.89414, "checkins": 137}, "4f325ac219836c91c7cf8b4c": {"category": "Seafood Restaurant", "rating": "", "data_source": "foursquare_explore", "name": "International Fish Market", "twitter": "", "place_id": "4f325ac219836c91c7cf8b4c", "longitude": -74.044064, "users_count": 3, "hours": "", "popular": "", "user": [], "time": "2014-11-26 19:45:37.061000", "latitude": 40.892107, "checkins": 3}, "4f32a3b019836c91c7eb5950": {"category": "Deli / Bodega", "rating": "", "data_source": "foursquare_explore", "name": "J L Hot Bagel and Deli", "twitter": "", "place_id": "4f32a3b019836c91c7eb5950", "longitude": -74.043902, "users_count": 2, "hours": "", "popular": "", "user": [], "time": "2014-11-26 19:45:36.952000", "latitude": 40.893939, "checkins": 7}, "4b9ae6d7f964a5203ae135e3": {"category": "Italian Restaurant", "rating": "", "data_source": "foursquare_explore", "name": "Metro Pizza", "twitter": "metropizza", "place_id": "4b9ae6d7f964a5203ae135e3", "longitude": -74.043889, "users_count": 49, "hours": "", "popular": "", "user": ["4792704", "2684836", "2756981", "9826094", "2884673"], "time": "2014-11-26 19:45:37.794000", "latitude": 40.89412974, "checkins": 100}, "4f325ce719836c91c7d06382": {"category": "Food", "rating": "", "data_source": "foursquare_explore", "name": "Silkys Ribs", "twitter": "", "place_id": "4f325ce719836c91c7d06382", "longitude": -74.043823, "users_count": 0, "hours": "", "popular": "", "user": [], "time": "2014-11-26 19:45:36.827000", "latitude": 40.893745, "checkins": 0}, "4f326e3019836c91c7d71335": {"category": "Food", "rating": "", "data_source": "foursquare_explore", "name": "Try Me Caribbean Restaurant", "twitter": "", "place_id": "4f326e3019836c91c7d71335", "longitude": -74.043372, "users_count": 1, "hours": "", "popular": "", "user": [], "time": "2014-11-26 19:45:37.155000", "latitude": 40.893579, "checkins": 1}, "4c1e66e163750f4712afb967": {"category": "Restaurant", "rating": "", "data_source": "foursquare_explore", "name": "Rudy's Restaurant of Hackensack", "twitter": "eatrudys", "place_id": "4c1e66e163750f4712afb967", "longitude": -74.043687, "users_count": 93, "hours": [{"segments": [], "open": [{"renderedTime": "11:30 AM\u20133:00 PM"}, {"renderedTime": "4:00 PM\u20139:30 PM"}], "days": "Mon\u2013Thu", "includesToday": true}, {"segments": [], "open": [{"renderedTime": "11:30 AM\u20133:00 PM"}, {"renderedTime": "4:00 PM\u201310:30 PM"}], "days": "Fri\u2013Sat"}, {"segments": [], "open": [{"renderedTime": "1:00 PM\u20139:00 PM"}], "days": "Sun"}], "popular": "", "user": ["1615461", "2373607"], "time": "2014-11-26 19:45:38.137000", "latitude": 40.893594916666665, "checkins": 134}, "4f32403619836c91c7c51828": {"category": "Pizza Place", "rating": "", "data_source": "foursquare_explore", "name": "Metro Gourmet Oven Pizza and Restaurant", "twitter": "metropizza", "place_id": "4f32403619836c91c7c51828", "longitude": -74.043991, "users_count": 13, "hours": "", "popular": "", "user": ["8683321"], "time": "2014-11-26 19:45:37.919000", "latitude": 40.893688, "checkins": 22}, "4c8983906418a143f00cd8ce": {"category": "Chinese Restaurant", "rating": "", "data_source": "foursquare_explore", "name": "China Palace", "twitter": "", "place_id": "4c8983906418a143f00cd8ce", "longitude": -74.04317836, "users_count": 23, "hours": "", "popular": "", "user": ["51206742"], "time": "2014-11-26 19:45:38.013000", "latitude": 40.89356186, "checkins": 40}}