{"4f32adbe19836c91c7ef1d4b": {"category": "Food", "rating": "", "data_source": "foursquare_explore", "name": "Butterfield", "twitter": "", "place_id": "4f32adbe19836c91c7ef1d4b", "longitude": -74.191865, "users_count": 0, "hours": "", "popular": "", "user": [], "time": "2014-11-26 19:47:22.080000", "latitude": 40.90096, "checkins": 0}, "4f32426019836c91c7c5f08b": {"category": "Food", "rating": "", "data_source": "foursquare_explore", "name": "Angera Sausage", "twitter": "", "place_id": "4f32426019836c91c7c5f08b", "longitude": -74.191874, "users_count": 0, "hours": "", "popular": "", "user": [], "time": "2014-11-26 19:47:21.878000", "latitude": 40.90219, "checkins": 0}, "4f4bc77be4b04a41326f31ae": {"category": "Caf\u00e9", "rating": "", "data_source": "foursquare_explore", "name": "Vinny's Cafe", "twitter": "", "place_id": "4f4bc77be4b04a41326f31ae", "longitude": -74.19191568913811, "users_count": 4, "hours": "", "popular": "", "user": ["19676635"], "time": "2014-11-26 19:47:22.408000", "latitude": 40.90276053631583, "checkins": 34}, "4f32131819833175d60dfd20": {"category": "Pizza Place", "rating": "", "data_source": "foursquare_explore", "name": "Puppet Enterprise", "twitter": "", "place_id": "4f32131819833175d60dfd20", "longitude": -74.191884, "users_count": 0, "hours": "", "popular": "", "user": [], "time": "2014-11-26 19:47:21.987000", "latitude": 40.902208, "checkins": 0}, "530947e211d26d7e9ad47805": {"category": "American Restaurant", "rating": "", "data_source": "foursquare_explore", "name": "Tony Stella's ENCORE", "twitter": "", "place_id": "530947e211d26d7e9ad47805", "longitude": -74.191228, "users_count": 1, "hours": "", "popular": "", "user": ["46365566"], "time": "2014-11-26 19:47:22.283000", "latitude": 40.901975, "checkins": 1}, "4f17020de4b0044a28c3d894": {"category": "Deli / Bodega", "rating": "", "data_source": "foursquare_explore", "name": "Gienozzo Deli", "twitter": "", "place_id": "4f17020de4b0044a28c3d894", "longitude": -74.19192187151172, "users_count": 4, "hours": "", "popular": "", "user": ["19676635"], "time": "2014-11-26 19:47:22.174000", "latitude": 40.90285283047321, "checkins": 9}}