{"4ef4a8ac9adf60f83accb05c": {"category": "Sandwich Place", "rating": "", "data_source": "foursquare_explore", "name": "Cacioppo's Deli", "twitter": "", "place_id": "4ef4a8ac9adf60f83accb05c", "longitude": -74.09226507524035, "users_count": 12, "hours": "", "popular": "", "user": [], "time": "2014-11-26 19:48:25.807000", "latitude": 40.90865190040717, "checkins": 13}, "4c2b885677cfe21e4ea6b4f1": {"category": "Bagel Shop", "rating": "", "data_source": "foursquare_explore", "name": "The Tasty Bagel", "twitter": "", "place_id": "4c2b885677cfe21e4ea6b4f1", "longitude": -74.09209873552153, "users_count": 38, "hours": "", "popular": "", "user": ["48823", "2956511"], "time": "2014-11-26 19:48:25.635000", "latitude": 40.908441372724, "checkins": 88}, "4beaf02f415e20a118aae5bb": {"category": "Italian Restaurant", "rating": "", "data_source": "foursquare_explore", "name": "Riccardo's pizza", "twitter": "", "place_id": "4beaf02f415e20a118aae5bb", "longitude": -74.092051, "users_count": 22, "hours": "", "popular": "", "user": [], "time": "2014-11-26 19:48:25.994000", "latitude": 40.90902, "checkins": 78}, "4f328a6119836c91c7e1cea0": {"category": "Food", "rating": "", "data_source": "foursquare_explore", "name": "First Fuchow Restaurant", "twitter": "", "place_id": "4f328a6119836c91c7e1cea0", "longitude": -74.091901, "users_count": 0, "hours": "", "popular": "", "user": [], "time": "2014-11-26 19:48:25.729000", "latitude": 40.908699, "checkins": 0}, "4ca3d32cb0ff8cfa88baba5e": {"category": "Chinese Restaurant", "rating": "", "data_source": "foursquare_explore", "name": "Yummy Yummy", "twitter": "", "place_id": "4ca3d32cb0ff8cfa88baba5e", "longitude": -74.0917316404497, "users_count": 36, "hours": "", "popular": "", "user": [], "time": "2014-11-26 19:48:25.916000", "latitude": 40.908373741928536, "checkins": 59}}