{"4f44f05219836ed0019799af": {"category": "Food", "rating": "", "data_source": "foursquare_explore", "name": "Sing Lee Take Out Restaurant", "twitter": "", "place_id": "4f44f05219836ed0019799af", "longitude": -74.157799, "users_count": 1, "hours": "", "popular": "", "user": [], "time": "2014-11-26 19:48:20.690000", "latitude": 40.906898, "checkins": 8}, "5179aa9be4b02bb455c5d7e1": {"category": "South American Restaurant", "rating": "", "data_source": "foursquare_explore", "name": "Noches de Colombia", "twitter": "", "place_id": "5179aa9be4b02bb455c5d7e1", "longitude": -74.15818134754748, "users_count": 57, "hours": "", "popular": "", "user": ["16268230"], "time": "2014-11-26 19:48:20.144000", "latitude": 40.90683043352827, "checkins": 79}, "4f32596119836c91c7cefec6": {"category": "Food", "rating": "", "data_source": "foursquare_explore", "name": "R C's Deli", "twitter": "", "place_id": "4f32596119836c91c7cefec6", "longitude": -74.158501, "users_count": 0, "hours": "", "popular": "", "user": [], "time": "2014-11-26 19:48:20.518000", "latitude": 40.906799, "checkins": 0}, "4f3294e819836c91c7e5d404": {"category": "Food", "rating": "", "data_source": "foursquare_explore", "name": "Muscia Family Meat Market", "twitter": "", "place_id": "4f3294e819836c91c7e5d404", "longitude": -74.158851, "users_count": 0, "hours": "", "popular": "", "user": [], "time": "2014-11-26 19:48:20.409000", "latitude": 40.906892, "checkins": 0}, "4f328c1819836c91c7e27501": {"category": "Food", "rating": "", "data_source": "foursquare_explore", "name": "La Montana Restaurant", "twitter": "", "place_id": "4f328c1819836c91c7e27501", "longitude": -74.15889, "users_count": 1, "hours": "", "popular": "", "user": [], "time": "2014-11-26 19:48:20.612000", "latitude": 40.906944, "checkins": 1}, "4f322ac719836c91c7bcc55e": {"category": "Pizza Place", "rating": "", "data_source": "foursquare_explore", "name": "Brother's-A and C Pizza", "twitter": "", "place_id": "4f322ac719836c91c7bcc55e", "longitude": -74.159227, "users_count": 0, "hours": "", "popular": "", "user": [], "time": "2014-11-26 19:48:20.315000", "latitude": 40.907, "checkins": 0}, "4f32403219836c91c7c5168b": {"category": "Food", "rating": "", "data_source": "foursquare_explore", "name": "Delicias Criolla Tit0", "twitter": "", "place_id": "4f32403219836c91c7c5168b", "longitude": -74.158584, "users_count": 0, "hours": "", "popular": "", "user": [], "time": "2014-11-26 19:48:20.237000", "latitude": 40.906894, "checkins": 0}}