{"4f3275f619836c91c7da0751": {"category": "Food", "rating": "", "data_source": "foursquare_explore", "name": "Gino's Pizzeria", "twitter": "", "place_id": "4f3275f619836c91c7da0751", "longitude": -74.171959, "users_count": 0, "hours": "", "popular": "", "user": [], "time": "2014-11-26 19:50:19.999000", "latitude": 40.916644, "checkins": 0}, "4bb633c5941ad13afc0b1fe3": {"category": "South American Restaurant", "rating": 6.9, "data_source": "foursquare_explore", "name": "Costa Marina Peruvian Restaurant", "twitter": "", "place_id": "4bb633c5941ad13afc0b1fe3", "longitude": -74.1705775, "users_count": 75, "hours": "", "popular": "", "user": ["12965736", "78505688", "55891888", "15069697", "86015", "7128944", "7128944"], "time": "2014-11-26 19:50:18.798000", "latitude": 40.9162427, "checkins": 153}, "4bc755d20050b713db7db83b": {"category": "Sandwich Place", "rating": "", "data_source": "foursquare_explore", "name": "SUBWAY", "twitter": "subway", "place_id": "4bc755d20050b713db7db83b", "longitude": -74.1707552116509, "users_count": 47, "hours": "", "popular": "", "user": ["9641563", "52240661"], "time": "2014-11-26 19:50:20.826000", "latitude": 40.91648225531921, "checkins": 95}, "4f32afc919836c91c7efde27": {"category": "Food", "rating": "", "data_source": "foursquare_explore", "name": "Biedad Restaurant", "twitter": "", "place_id": "4f32afc919836c91c7efde27", "longitude": -74.17216, "users_count": 0, "hours": "", "popular": "", "user": [], "time": "2014-11-26 19:50:20.311000", "latitude": 40.917216, "checkins": 0}, "4e6d2fc188776961e58819e2": {"category": "Latin American Restaurant", "rating": 7.2, "data_source": "foursquare_explore", "name": "Kikiriki", "twitter": "", "place_id": "4e6d2fc188776961e58819e2", "longitude": -74.16939064741211, "users_count": 90, "hours": "", "popular": "", "user": ["10907549", "74791294", "31268288", "13161609"], "time": "2014-11-26 19:50:18.969000", "latitude": 40.916098223371506, "checkins": 160}, "4f3297bd19836c91c7e6df78": {"category": "Food", "rating": "", "data_source": "foursquare_explore", "name": "Drop's Cafe", "twitter": "", "place_id": "4f3297bd19836c91c7e6df78", "longitude": -74.170827, "users_count": 0, "hours": "", "popular": "", "user": [], "time": "2014-11-26 19:50:19.141000", "latitude": 40.91722, "checkins": 0}, "4f437e8119834bc91f572db6": {"category": "Food", "rating": "", "data_source": "foursquare_explore", "name": "El Patio Restaurant", "twitter": "", "place_id": "4f437e8119834bc91f572db6", "longitude": -74.171136, "users_count": 0, "hours": "", "popular": "", "user": [], "time": "2014-11-26 19:50:19.468000", "latitude": 40.917298, "checkins": 0}, "4be8e4716af1ef3bcab31b96": {"category": "Spanish Restaurant", "rating": "", "data_source": "foursquare_explore", "name": "La Pupusa Loca", "twitter": "", "place_id": "4be8e4716af1ef3bcab31b96", "longitude": -74.1702908022586, "users_count": 20, "hours": "", "popular": "", "user": ["1197108", "11837305", "4449532"], "time": "2014-11-26 19:50:20.982000", "latitude": 40.91606067300438, "checkins": 28}, "4f322cf019836c91c7bd985a": {"category": "Food", "rating": "", "data_source": "foursquare_explore", "name": "Isandra Restaurant", "twitter": "", "place_id": "4f322cf019836c91c7bd985a", "longitude": -74.17088, "users_count": 0, "hours": "", "popular": "", "user": [], "time": "2014-11-26 19:50:19.297000", "latitude": 40.91732, "checkins": 0}, "4f3264fd19836c91c7d388c5": {"category": "Food", "rating": "", "data_source": "foursquare_explore", "name": "Vics Restaurante", "twitter": "", "place_id": "4f3264fd19836c91c7d388c5", "longitude": -74.170187, "users_count": 0, "hours": "", "popular": "", "user": [], "time": "2014-11-26 19:50:19.656000", "latitude": 40.916222, "checkins": 0}, "4f329bc819836c91c7e862c8": {"category": "Food", "rating": "", "data_source": "foursquare_explore", "name": "Church Street Cafe", "twitter": "", "place_id": "4f329bc819836c91c7e862c8", "longitude": -74.17037, "users_count": 2, "hours": "", "popular": "", "user": [], "time": "2014-11-26 19:50:20.482000", "latitude": 40.917652, "checkins": 2}, "4bfec694c30a2d7faafc0f1d": {"category": "Fast Food Restaurant", "rating": 5.7, "data_source": "foursquare_explore", "name": "McDonald's", "twitter": "", "place_id": "4bfec694c30a2d7faafc0f1d", "longitude": -74.17143749000866, "users_count": 103, "hours": "", "popular": [{"segments": [], "open": [{"renderedTime": "7:00 AM\u20138:00 AM"}, {"renderedTime": "10:00 AM\u20134:00 PM"}, {"renderedTime": "6:00 PM\u20138:00 PM"}, {"renderedTime": "10:00 PM\u201311:00 PM"}], "days": "Today", "includesToday": true}, {"segments": [], "open": [{"renderedTime": "8:00 AM\u201310:00 PM"}], "days": "Thu"}, {"segments": [], "open": [{"renderedTime": "7:00 AM\u20135:00 PM"}], "days": "Fri"}, {"segments": [], "open": [{"renderedTime": "Noon\u20131:00 PM"}, {"renderedTime": "3:00 PM\u20137:00 PM"}, {"renderedTime": "11:00 PM\u2013Midnight"}], "days": "Sat"}, {"segments": [], "open": [{"renderedTime": "10:00 AM\u201311:00 AM"}, {"renderedTime": "1:00 PM\u20137:00 PM"}], "days": "Sun"}, {"segments": [], "open": [{"renderedTime": "8:00 AM\u20137:00 PM"}], "days": "Mon"}, {"segments": [], "open": [{"renderedTime": "7:00 AM\u20138:00 PM"}], "days": "Tue"}], "user": ["15898365", "4498649", "4108323", "1672488", "89988049"], "time": "2014-11-26 19:50:20.654000", "latitude": 40.91654260783461, "checkins": 346}, "4f44c87519836ed00196764d": {"category": "Food", "rating": "", "data_source": "foursquare_explore", "name": "El Carretero Restaurant", "twitter": "", "place_id": "4f44c87519836ed00196764d", "longitude": -74.171714, "users_count": 0, "hours": "", "popular": "", "user": [], "time": "2014-11-26 19:50:19.827000", "latitude": 40.916626, "checkins": 0}, "4f32932019836c91c7e51f32": {"category": "Food", "rating": "", "data_source": "foursquare_explore", "name": "Chesters Chicken", "twitter": "", "place_id": "4f32932019836c91c7e51f32", "longitude": -74.17219, "users_count": 0, "hours": "", "popular": "", "user": [], "time": "2014-11-26 19:50:20.155000", "latitude": 40.917072, "checkins": 0}}