{"4eb9c91b9adfe14d04078de9": {"category": "Fish Market", "rating": "", "data_source": "foursquare_explore", "name": "Dyre Fish Market Corp/ La Conia", "twitter": "", "place_id": "4eb9c91b9adfe14d04078de9", "longitude": -73.84900781176266, "users_count": 9, "hours": "", "popular": "", "user": [], "time": "2014-11-26 21:36:31.412000", "latitude": 40.88377761833944, "checkins": 15}, "51ebe5e3498ec8b5551ee9c3": {"category": "Grocery Store", "rating": "", "data_source": "foursquare_explore", "name": "C-Town Supermarkets", "twitter": "ctownmarkets", "place_id": "51ebe5e3498ec8b5551ee9c3", "longitude": -73.849450029962, "users_count": 2, "hours": "", "popular": "", "user": [], "time": "2014-11-26 21:36:31.193000", "latitude": 40.8841785470718, "checkins": 2}, "4e5be658d164da2b27828cde": {"category": "Deli / Bodega", "rating": "", "data_source": "foursquare_explore", "name": "Flipper Deli & Grocery", "twitter": "", "place_id": "4e5be658d164da2b27828cde", "longitude": -73.84944915771484, "users_count": 11, "hours": "", "popular": "", "user": [], "time": "2014-11-26 21:36:31.115000", "latitude": 40.88409423828125, "checkins": 34}, "4f32888719836c91c7e11e81": {"category": "Food", "rating": "", "data_source": "foursquare_explore", "name": "Blue Mountain Cuisine", "twitter": "", "place_id": "4f32888719836c91c7e11e81", "longitude": -73.849456, "users_count": 0, "hours": "", "popular": "", "user": [], "time": "2014-11-26 21:36:31.022000", "latitude": 40.882701, "checkins": 0}, "514d48e7067d30ea488fbc3f": {"category": "Gift Shop", "rating": "", "data_source": "foursquare_explore", "name": "Dahiana Polanco", "twitter": "", "place_id": "514d48e7067d30ea488fbc3f", "longitude": -73.8495397567749, "users_count": 0, "hours": "", "popular": "", "user": [], "time": "2014-11-26 21:36:30.928000", "latitude": 40.88378280627419, "checkins": 0}, "4e80b59ed22da9de9e2e4113": {"category": "Seafood Restaurant", "rating": "", "data_source": "foursquare_explore", "name": "Laconia Seafood Spot", "twitter": "", "place_id": "4e80b59ed22da9de9e2e4113", "longitude": -73.84954766241772, "users_count": 19, "hours": "", "popular": "", "user": [], "time": "2014-11-26 21:36:30.850000", "latitude": 40.88409428408152, "checkins": 51}, "4baceb86f964a520b2193be3": {"category": "Pizza Place", "rating": "", "data_source": "foursquare_explore", "name": "Laconia Pizza", "twitter": "", "place_id": "4baceb86f964a520b2193be3", "longitude": -73.84912841682454, "users_count": 19, "hours": "", "popular": "", "user": ["83812", "2888776"], "time": "2014-11-26 21:36:31.318000", "latitude": 40.88465012272928, "checkins": 104}}