{"4d4dc2d24aa3a09348b546ae": {"category": "Caf\u00e9", "rating": "", "data_source": "foursquare_explore", "name": "WilChris Internet Cafe", "twitter": "", "place_id": "4d4dc2d24aa3a09348b546ae", "longitude": -74.1372459575628, "users_count": 14, "hours": "", "popular": "", "user": ["5236330", "488638"], "time": "2014-11-26 21:35:54.861000", "latitude": 40.884895733973956, "checkins": 73}, "4f5fa982e4b0170830a3ca13": {"category": "Department Store", "rating": "", "data_source": "foursquare_explore", "name": "Babies R Us", "twitter": "", "place_id": "4f5fa982e4b0170830a3ca13", "longitude": -74.13772765276693, "users_count": 26, "hours": "", "popular": "", "user": [], "time": "2014-11-26 21:35:55.610000", "latitude": 40.88300838725702, "checkins": 28}, "4f328b4919836c91c7e2256d": {"category": "Food", "rating": "", "data_source": "foursquare_explore", "name": "Jm Deli Cafe Restaurant", "twitter": "", "place_id": "4f328b4919836c91c7e2256d", "longitude": -74.137946, "users_count": 0, "hours": "", "popular": "", "user": [], "time": "2014-11-26 21:35:55.095000", "latitude": 40.883786, "checkins": 0}, "4cf2de061c158cfaef58dab5": {"category": "Chinese Restaurant", "rating": "", "data_source": "foursquare_explore", "name": "Hong Kong Chinese", "twitter": "", "place_id": "4cf2de061c158cfaef58dab5", "longitude": -74.137706, "users_count": 29, "hours": "", "popular": "", "user": ["17856395", "3734832"], "time": "2014-11-26 21:35:55.204000", "latitude": 40.883811, "checkins": 53}, "4dcec9b852b1f8915b9fbd0b": {"category": "Electronics Store", "rating": "", "data_source": "foursquare_explore", "name": "Computer Technology Center", "twitter": "", "place_id": "4dcec9b852b1f8915b9fbd0b", "longitude": -74.137774, "users_count": 1, "hours": "", "popular": "", "user": [], "time": "2014-11-26 21:35:55.501000", "latitude": 40.8833124, "checkins": 1}, "4fd9fab90cd60705083b4a6a": {"category": "Electronics Store", "rating": "", "data_source": "foursquare_explore", "name": "Star Media", "twitter": "", "place_id": "4fd9fab90cd60705083b4a6a", "longitude": -74.137544631958, "users_count": 0, "hours": "", "popular": "", "user": [], "time": "2014-11-26 21:35:54.986000", "latitude": 40.88284187534118, "checkins": 0}, "4c797ff63badb1f7f35b4f54": {"category": "Bakery", "rating": "", "data_source": "foursquare_explore", "name": "Lakeview Bakery", "twitter": "", "place_id": "4c797ff63badb1f7f35b4f54", "longitude": -74.13733197465467, "users_count": 29, "hours": "", "popular": "", "user": ["3693178"], "time": "2014-11-26 21:35:55.407000", "latitude": 40.88497963727408, "checkins": 104}, "4c9a695f13de9521b5dfd753": {"category": "Liquor Store", "rating": "", "data_source": "foursquare_explore", "name": "Clifton Wine & Liquors", "twitter": "", "place_id": "4c9a695f13de9521b5dfd753", "longitude": -74.13759002569255, "users_count": 16, "hours": "", "popular": "", "user": [], "time": "2014-11-26 21:35:55.298000", "latitude": 40.88493593957572, "checkins": 28}}