{"53bd43a6498e9424897fee0e": {"category": "Optical Shop", "rating": "", "data_source": "foursquare_explore", "name": "optical outlet", "twitter": "", "place_id": "53bd43a6498e9424897fee0e", "longitude": -74.14807, "users_count": 3, "hours": "", "popular": "", "user": [], "time": "2014-11-26 21:35:54.019000", "latitude": 40.883702, "checkins": 3}, "52ec967b11d2d5707dc3cfbd": {"category": "Warehouse Store", "rating": "", "data_source": "foursquare_explore", "name": "East Coast Trading Group Corp", "twitter": "", "place_id": "52ec967b11d2d5707dc3cfbd", "longitude": -74.1472864151001, "users_count": 0, "hours": "", "popular": "", "user": [], "time": "2014-11-26 21:35:53.629000", "latitude": 40.884415493690156, "checkins": 0}, "4f3293db19836c91c7e56a1e": {"category": "Food", "rating": "", "data_source": "foursquare_explore", "name": "J and S Pastry", "twitter": "", "place_id": "4f3293db19836c91c7e56a1e", "longitude": -74.14783, "users_count": 0, "hours": "", "popular": "", "user": [], "time": "2014-11-26 21:35:53.722000", "latitude": 40.883354, "checkins": 0}, "4ca9e2b4b7106dcb8dc380a5": {"category": "Bakery", "rating": "", "data_source": "foursquare_explore", "name": "Bay State Milling Co", "twitter": "", "place_id": "4ca9e2b4b7106dcb8dc380a5", "longitude": -74.14629473836337, "users_count": 9, "hours": "", "popular": "", "user": [], "time": "2014-11-26 21:35:53.519000", "latitude": 40.88497534726743, "checkins": 83}, "4c5c824b6ebe2d7f1449d02e": {"category": "Asian Restaurant", "rating": "", "data_source": "foursquare_explore", "name": "American Pinoy Foods", "twitter": "", "place_id": "4c5c824b6ebe2d7f1449d02e", "longitude": -74.14800925509309, "users_count": 34, "hours": "", "popular": "", "user": [], "time": "2014-11-26 21:35:53.831000", "latitude": 40.88367414353, "checkins": 61}, "51630518498ea7a80fcd8079": {"category": "Music Store", "rating": "", "data_source": "foursquare_explore", "name": "Fuchs Audio", "twitter": "", "place_id": "51630518498ea7a80fcd8079", "longitude": -74.146395, "users_count": 5, "hours": "", "popular": "", "user": [], "time": "2014-11-26 21:35:53.925000", "latitude": 40.883542, "checkins": 9}}