{"4e4de62abd4101d0d79dae97": {"category": "Caribbean Restaurant", "rating": "", "data_source": "foursquare_explore", "name": "Gold Star Jerk And Seafood Center", "twitter": "", "place_id": "4e4de62abd4101d0d79dae97", "longitude": -73.86283671072441, "users_count": 28, "hours": "", "popular": "", "user": ["195660"], "time": "2014-11-26 21:36:28.495000", "latitude": 40.88339705087989, "checkins": 36}, "4dd1f83de4cd7f7178bf42bd": {"category": "Chinese Restaurant", "rating": "", "data_source": "foursquare_explore", "name": "Chai Hwa Chinese Restaurant", "twitter": "", "place_id": "4dd1f83de4cd7f7178bf42bd", "longitude": -73.86294582192514, "users_count": 15, "hours": "", "popular": "", "user": [], "time": "2014-11-26 21:36:28.697000", "latitude": 40.88328933605379, "checkins": 21}, "4c66b99febfcb71314061327": {"category": "Fast Food Restaurant", "rating": "", "data_source": "foursquare_explore", "name": "Kennedy Fried Chicken", "twitter": "", "place_id": "4c66b99febfcb71314061327", "longitude": -73.86269314326273, "users_count": 30, "hours": "", "popular": "", "user": ["11411621"], "time": "2014-11-26 21:36:28.791000", "latitude": 40.883147545039975, "checkins": 37}, "4f3297d219836c91c7e6e7c9": {"category": "Food", "rating": "", "data_source": "foursquare_explore", "name": "Arkansas Fried Chicken", "twitter": "", "place_id": "4f3297d219836c91c7e6e7c9", "longitude": -73.862832, "users_count": 0, "hours": "", "popular": "", "user": [], "time": "2014-11-26 21:36:28.089000", "latitude": 40.883313, "checkins": 0}, "4c9bcc4e8afca093b882e715": {"category": "Caribbean Restaurant", "rating": "", "data_source": "foursquare_explore", "name": "Gold Star Jerk Center", "twitter": "", "place_id": "4c9bcc4e8afca093b882e715", "longitude": -73.86245194969102, "users_count": 19, "hours": "", "popular": "", "user": [], "time": "2014-11-26 21:36:28.292000", "latitude": 40.883639795157904, "checkins": 69}, "4ba39e47f964a520944c38e3": {"category": "Caribbean Restaurant", "rating": 6.1, "data_source": "foursquare_explore", "name": "Golden Krust Caribbean Bakery and Grill", "twitter": "", "place_id": "4ba39e47f964a520944c38e3", "longitude": -73.86265575885773, "users_count": 133, "hours": "", "popular": [{"segments": [], "open": [{"renderedTime": "Noon\u20134:00 PM"}, {"renderedTime": "6:00 PM\u201310:00 PM"}], "days": "Today", "includesToday": true}, {"segments": [], "open": [{"renderedTime": "2:00 PM\u20133:00 PM"}, {"renderedTime": "5:00 PM\u201310:00 PM"}], "days": "Thu"}, {"segments": [], "open": [{"renderedTime": "3:00 AM\u20134:00 AM"}], "days": "Fri"}, {"segments": [], "open": [{"renderedTime": "11:00 AM\u20137:00 PM"}, {"renderedTime": "9:00 PM\u201310:00 PM"}], "days": "Sat"}, {"segments": [], "open": [{"renderedTime": "8:00 AM\u20139:00 AM"}, {"renderedTime": "Noon\u20137:00 PM"}, {"renderedTime": "10:00 PM\u201311:00 PM"}], "days": "Sun"}, {"segments": [], "open": [{"renderedTime": "Noon\u20134:00 PM"}, {"renderedTime": "6:00 PM\u20137:00 PM"}, {"renderedTime": "9:00 PM\u201310:00 PM"}], "days": "Mon"}, {"segments": [], "open": [{"renderedTime": "Noon\u20133:00 PM"}, {"renderedTime": "5:00 PM\u201310:00 PM"}], "days": "Tue"}], "user": ["1400974", "26121931", "5459817", "8431744", "19471579", "19471579", "19014751", "17852199"], "time": "2014-11-26 21:36:27.761000", "latitude": 40.883803084810836, "checkins": 255}, "4f32070a19833175d60b17ca": {"category": "Food", "rating": "", "data_source": "foursquare_explore", "name": "Flame Bar and Grill Restaurant", "twitter": "", "place_id": "4f32070a19833175d60b17ca", "longitude": -73.862595, "users_count": 0, "hours": "", "popular": "", "user": [], "time": "2014-11-26 21:36:27.871000", "latitude": 40.884056, "checkins": 0}, "4b5667edf964a520110f28e3": {"category": "Restaurant", "rating": 6.7, "data_source": "foursquare_explore", "name": "Gold Star", "twitter": "", "place_id": "4b5667edf964a520110f28e3", "longitude": -73.86288, "users_count": 77, "hours": "", "popular": "", "user": ["2860672", "10324227", "531250", "61393356", "2796800", "2796800", "61393356", "8438521", "2860672"], "time": "2014-11-26 21:36:27.995000", "latitude": 40.883281230926514, "checkins": 186}, "4f32039419833175d609c6d5": {"category": "Food", "rating": "", "data_source": "foursquare_explore", "name": "Castillo Hermano Grocery Store", "twitter": "", "place_id": "4f32039419833175d609c6d5", "longitude": -73.86282, "users_count": 0, "hours": "", "popular": "", "user": [], "time": "2014-11-26 21:36:28.198000", "latitude": 40.883342, "checkins": 0}, "4c01b04fb58376b0159b443c": {"category": "Spanish Restaurant", "rating": "", "data_source": "foursquare_explore", "name": "Parrilla Internacional", "twitter": "", "place_id": "4c01b04fb58376b0159b443c", "longitude": -73.86273622512817, "users_count": 18, "hours": [{"segments": [], "open": [{"renderedTime": "7:00 AM\u201311:35 PM"}], "days": "Mon\u2013Sun", "includesToday": true}], "popular": "", "user": ["9252899", "1400974", "1400974"], "time": "2014-11-26 21:36:28.401000", "latitude": 40.884066, "checkins": 54}, "4f3216af19836c91c7b4a024": {"category": "Bakery", "rating": "", "data_source": "foursquare_explore", "name": "Cholo and Sons Bakery", "twitter": "", "place_id": "4f3216af19836c91c7b4a024", "longitude": -73.86246, "users_count": 2, "hours": "", "popular": "", "user": [], "time": "2014-11-26 21:36:28.604000", "latitude": 40.8843, "checkins": 5}}