{"53b5a68e498eb33cef8917f1": {"category": "Music Venue", "rating": "", "data_source": "foursquare_explore", "name": "Bugatti Music Group", "twitter": "bugattimusicon", "place_id": "53b5a68e498eb33cef8917f1", "longitude": -73.9118, "users_count": 2, "hours": "", "popular": "", "user": ["86691227"], "time": "2014-11-26 21:37:24.046000", "latitude": 40.8867, "checkins": 17}, "53d6c611498e68b77140e41c": {"category": "American Restaurant", "rating": "", "data_source": "foursquare_explore", "name": "Salt Creek Grille", "twitter": "", "place_id": "53d6c611498e68b77140e41c", "longitude": -73.9116, "users_count": 1, "hours": "", "popular": "", "user": [], "time": "2014-11-26 21:37:24.374000", "latitude": 40.8869, "checkins": 1}, "53cc26ee498e3cb77abb8666": {"category": "Seafood Restaurant", "rating": "", "data_source": "foursquare_explore", "name": "Rooney's Oceanfront Restaurant", "twitter": "", "place_id": "53cc26ee498e3cb77abb8666", "longitude": -73.9116, "users_count": 2, "hours": "", "popular": "", "user": [], "time": "2014-11-26 21:37:24.904000", "latitude": 40.8867, "checkins": 2}, "53cefdb5498e5672a5078a45": {"category": "Music Venue", "rating": "", "data_source": "foursquare_explore", "name": "Tribecca Night Club", "twitter": "", "place_id": "53cefdb5498e5672a5078a45", "longitude": -73.9116, "users_count": 1, "hours": "", "popular": "", "user": [], "time": "2014-11-26 21:37:25.232000", "latitude": 40.8867, "checkins": 1}, "4e075f71d22d658532a577d5": {"category": "Farmers Market", "rating": "", "data_source": "foursquare_explore", "name": "Riverdale Y Greenmarket", "twitter": "", "place_id": "4e075f71d22d658532a577d5", "longitude": -73.9131764615132, "users_count": 19, "hours": "", "popular": "", "user": ["54442528"], "time": "2014-11-26 21:37:24.546000", "latitude": 40.88779339933856, "checkins": 46}, "53fa67c9498e073c7dcf5f41": {"category": "Park", "rating": "", "data_source": "foursquare_explore", "name": "Boston Common Carousel", "twitter": "", "place_id": "53fa67c9498e073c7dcf5f41", "longitude": -73.9116, "users_count": 1, "hours": "", "popular": "", "user": [], "time": "2014-11-26 21:37:25.076000", "latitude": 40.8867, "checkins": 1}, "53fa66ee498ec2bab972f445": {"category": "Park", "rating": "", "data_source": "foursquare_explore", "name": "Boston Common Frog Pond", "twitter": "", "place_id": "53fa66ee498ec2bab972f445", "longitude": -73.912, "users_count": 1, "hours": "", "popular": "", "user": [], "time": "2014-11-26 21:37:24.218000", "latitude": 40.8868, "checkins": 1}, "4dd313bc813091d61fba0036": {"category": "Food Truck", "rating": "", "data_source": "foursquare_explore", "name": "Park Lunch", "twitter": "", "place_id": "4dd313bc813091d61fba0036", "longitude": -73.912272, "users_count": 6, "hours": "", "popular": "", "user": [], "time": "2014-11-26 21:37:24.717000", "latitude": 40.887115, "checkins": 11}}