{"4f32731219836c91c7d8f039": {"category": "Caribbean Restaurant", "rating": "", "data_source": "foursquare_explore", "name": "Mac West Indian Restaurant", "twitter": "", "place_id": "4f32731219836c91c7d8f039", "longitude": -74.0498494368116, "users_count": 15, "hours": "", "popular": "", "user": ["14057759"], "time": "2014-11-26 21:36:58.852000", "latitude": 40.887908007779004, "checkins": 26}, "4e84c9b3e5fa1fcf99a60240": {"category": "Food", "rating": "", "data_source": "foursquare_explore", "name": "Corner Store", "twitter": "", "place_id": "4e84c9b3e5fa1fcf99a60240", "longitude": -74.05036577844534, "users_count": 22, "hours": "", "popular": "", "user": [], "time": "2014-11-26 21:36:58.509000", "latitude": 40.887847806438835, "checkins": 57}, "545a5da7498e634829684ed1": {"category": "Electronics Store", "rating": "", "data_source": "foursquare_explore", "name": "North Jersey Electro", "twitter": "", "place_id": "545a5da7498e634829684ed1", "longitude": -74.0489123521226, "users_count": 0, "hours": [{"segments": [], "open": [{"renderedTime": "7:00 AM\u20135:00 PM"}], "days": "Mon\u2013Fri", "includesToday": true}, {"segments": [], "open": [{"renderedTime": "7:00 AM\u2013Midnight"}], "days": "Sat"}], "popular": "", "user": [], "time": "2014-11-26 21:36:58.166000", "latitude": 40.8875332409674, "checkins": 0}, "4f32379c19836c91c7c1afc0": {"category": "Food", "rating": "", "data_source": "foursquare_explore", "name": "Laurel's Restaurant", "twitter": "", "place_id": "4f32379c19836c91c7c1afc0", "longitude": -74.049267, "users_count": 0, "hours": "", "popular": "", "user": [], "time": "2014-11-26 21:36:58.010000", "latitude": 40.887703, "checkins": 0}, "5192d872498ef53e9b2c36f4": {"category": "Indian Restaurant", "rating": "", "data_source": "foursquare_explore", "name": "Desi Bites", "twitter": "", "place_id": "5192d872498ef53e9b2c36f4", "longitude": -74.049372, "users_count": 11, "hours": "", "popular": "", "user": [], "time": "2014-11-26 21:36:58.681000", "latitude": 40.887647, "checkins": 14}, "4f32ab6d19836c91c7ee41a7": {"category": "Pizza Place", "rating": "", "data_source": "foursquare_explore", "name": "Mr Pizza OPF Hackensack", "twitter": "", "place_id": "4f32ab6d19836c91c7ee41a7", "longitude": -74.050198, "users_count": 0, "hours": "", "popular": "", "user": [], "time": "2014-11-26 21:36:58.337000", "latitude": 40.88823, "checkins": 0}}