{"4bf6df4f5317a59380fdfc7e": {"category": "Cosmetics Shop", "rating": "", "data_source": "foursquare_explore", "name": "Hair Master West", "twitter": "", "place_id": "4bf6df4f5317a59380fdfc7e", "longitude": -74.02149439075838, "users_count": 7, "hours": "", "popular": "", "user": ["1038829"], "time": "2014-11-26 20:33:18.246000", "latitude": 40.88888191557609, "checkins": 13}, "4e4aa7a7aeb7de71b39961a2": {"category": "Shoe Store", "rating": "", "data_source": "foursquare_explore", "name": "Manor Shoes", "twitter": "", "place_id": "4e4aa7a7aeb7de71b39961a2", "longitude": -74.02206245113582, "users_count": 5, "hours": "", "popular": "", "user": ["11178088"], "time": "2014-11-26 20:33:18.340000", "latitude": 40.88936729131779, "checkins": 23}, "4cc75d71be874688fa127eaf": {"category": "Electronics Store", "rating": "", "data_source": "foursquare_explore", "name": "Verizon wireless depot", "twitter": "", "place_id": "4cc75d71be874688fa127eaf", "longitude": -74.02105256485083, "users_count": 10, "hours": "", "popular": "", "user": [], "time": "2014-11-26 20:33:18.527000", "latitude": 40.888781483057365, "checkins": 14}, "541a8633498e7ff7ba2fcca7": {"category": "IT Services", "rating": "", "data_source": "foursquare_explore", "name": "All American Balianti Incorporated", "twitter": "balianti", "place_id": "541a8633498e7ff7ba2fcca7", "longitude": -74.02148008346558, "users_count": 0, "hours": "", "popular": "", "user": [], "time": "2014-11-26 20:33:18.044000", "latitude": 40.89074203518127, "checkins": 0}, "4c2cc87fb34ad13aedd4ebce": {"category": "Flea Market", "rating": "", "data_source": "foursquare_explore", "name": "Teaneck farmers market", "twitter": "", "place_id": "4c2cc87fb34ad13aedd4ebce", "longitude": -74.02164357849607, "users_count": 16, "hours": "", "popular": "", "user": [], "time": "2014-11-26 20:33:18.137000", "latitude": 40.88928047206737, "checkins": 16}, "4e1c905645dd94fe4a5441ba": {"category": "Bridal Shop", "rating": "", "data_source": "foursquare_explore", "name": "Couture De Bride", "twitter": "couturedebride", "place_id": "4e1c905645dd94fe4a5441ba", "longitude": -74.02069421666667, "users_count": 6, "hours": "", "popular": "", "user": [], "time": "2014-11-26 20:33:18.449000", "latitude": 40.8887775, "checkins": 14}}