{"4c6d4ee81fb2a143a6b7fde6": {"category": "Shoe Store", "rating": "", "data_source": "foursquare_explore", "name": "Nine West Outlet", "twitter": "ninewest", "place_id": "4c6d4ee81fb2a143a6b7fde6", "longitude": -73.97394921855523, "users_count": 50, "hours": "", "popular": "", "user": [], "time": "2014-11-26 20:33:45.640000", "latitude": 40.893511341696914, "checkins": 68}, "4f82032ce4b09a147849f536": {"category": "Convenience Store", "rating": "", "data_source": "foursquare_explore", "name": "Palisade News and Food", "twitter": "", "place_id": "4f82032ce4b09a147849f536", "longitude": -73.97292137145996, "users_count": 11, "hours": "", "popular": "", "user": ["2614303", "27465541", "2614303", "27465541"], "time": "2014-11-26 20:33:45.749000", "latitude": 40.89314271824592, "checkins": 70}, "4d10e95e5584f04d83ae5a16": {"category": "Boutique", "rating": "", "data_source": "foursquare_explore", "name": "Unbuttoned", "twitter": "", "place_id": "4d10e95e5584f04d83ae5a16", "longitude": -73.973238, "users_count": 9, "hours": "", "popular": "", "user": [], "time": "2014-11-26 20:33:46.561000", "latitude": 40.893989, "checkins": 29}, "4c7681d9d8948cfacc8f6ada": {"category": "Drugstore / Pharmacy", "rating": "", "data_source": "foursquare_explore", "name": "Buckley's Drug Store", "twitter": "", "place_id": "4c7681d9d8948cfacc8f6ada", "longitude": -73.97400087329386, "users_count": 11, "hours": "", "popular": "", "user": [], "time": "2014-11-26 20:33:46.670000", "latitude": 40.893378947475455, "checkins": 19}, "4e67acf2bd41e96a148c2981": {"category": "Electronics Store", "rating": "", "data_source": "foursquare_explore", "name": "T-Mobile", "twitter": "tmobile", "place_id": "4e67acf2bd41e96a148c2981", "longitude": -73.9736042, "users_count": 6, "hours": "", "popular": "", "user": [], "time": "2014-11-26 20:33:46.373000", "latitude": 40.8932679, "checkins": 20}, "4dac77024df01c19b1b4f5e0": {"category": "Women's Store", "rating": "", "data_source": "foursquare_explore", "name": "EREZ", "twitter": "", "place_id": "4dac77024df01c19b1b4f5e0", "longitude": -73.97379999367688, "users_count": 11, "hours": "", "popular": "", "user": [], "time": "2014-11-26 20:33:46.467000", "latitude": 40.89334191392644, "checkins": 13}, "4b9fe9a7f964a520df4937e3": {"category": "Optical Shop", "rating": "", "data_source": "foursquare_explore", "name": "Spectacles", "twitter": "", "place_id": "4b9fe9a7f964a520df4937e3", "longitude": -73.973252, "users_count": 31, "hours": "", "popular": "", "user": ["226751"], "time": "2014-11-26 20:33:46.155000", "latitude": 40.892171, "checkins": 59}, "52fc2423498e083efbf07792": {"category": "Warehouse Store", "rating": "", "data_source": "foursquare_explore", "name": "A-1 Ron's Hardwoood Flooring & Painting", "twitter": "a1ronsflooring", "place_id": "52fc2423498e083efbf07792", "longitude": -73.97264, "users_count": 0, "hours": "", "popular": "", "user": [], "time": "2014-11-26 20:33:45.297000", "latitude": 40.89288, "checkins": 0}, "4dcade441f6ea1401d32d37c": {"category": "Flower Shop", "rating": "", "data_source": "foursquare_explore", "name": "Englewood Florist", "twitter": "", "place_id": "4dcade441f6ea1401d32d37c", "longitude": -73.97349006471369, "users_count": 10, "hours": "", "popular": "", "user": ["79819040"], "time": "2014-11-26 20:33:45.937000", "latitude": 40.893125990677575, "checkins": 11}, "4df40629aeb7170aa2f34f1e": {"category": "Liquor Store", "rating": "", "data_source": "foursquare_explore", "name": "Englewood Liquors", "twitter": "", "place_id": "4df40629aeb7170aa2f34f1e", "longitude": -73.973708162925, "users_count": 17, "hours": "", "popular": "", "user": [], "time": "2014-11-26 20:33:45.500000", "latitude": 40.89332201300347, "checkins": 18}, "545ab816498e801a49de36af": {"category": "Health & Beauty Service", "rating": "", "data_source": "foursquare_explore", "name": "Lucy's Hair Salon", "twitter": "", "place_id": "545ab816498e801a49de36af", "longitude": -73.973302, "users_count": 1, "hours": "", "popular": "", "user": [], "time": "2014-11-26 20:33:46.046000", "latitude": 40.893882, "checkins": 1}, "4f77367fe4b0c8b497d924ad": {"category": "Toy / Game Store", "rating": "", "data_source": "foursquare_explore", "name": "Kidville", "twitter": "", "place_id": "4f77367fe4b0c8b497d924ad", "longitude": -73.973506, "users_count": 33, "hours": "", "popular": "", "user": [], "time": "2014-11-26 20:33:46.264000", "latitude": 40.892202, "checkins": 66}, "4bedc5faa40fc928a77b820c": {"category": "Pet Store", "rating": "", "data_source": "foursquare_explore", "name": "Mama's & Papa's Puppies", "twitter": "", "place_id": "4bedc5faa40fc928a77b820c", "longitude": -73.97280133189763, "users_count": 28, "hours": "", "popular": "", "user": [], "time": "2014-11-26 20:33:45.843000", "latitude": 40.89337986830671, "checkins": 34}, "4ce303a74df7a35dd06be079": {"category": "Boutique", "rating": "", "data_source": "foursquare_explore", "name": "Anik NY inc", "twitter": "aniknewyork", "place_id": "4ce303a74df7a35dd06be079", "longitude": -73.97303664922028, "users_count": 16, "hours": "", "popular": "", "user": ["90455624"], "time": "2014-11-26 20:33:45.406000", "latitude": 40.89308886261739, "checkins": 41}}